#version,serial,flight,call,time,state,state_name,acceleration,pressure,altitude,height,speed,temperature,drogue_voltage,main_voltage,battery_voltage,accel_x,accel_y,accel_z,gyro_roll,gyro_pitch,gyro_yaw,mag_x,mag_y,mag_z,tilt,pyro,igniter_a,igniter_b,igniter_c,igniter_d,connected,locked,nsat,latitude,longitude,altitude,year,month,day,hour,minute,second,pad_dist,pad_range,pad_az,pad_el,pdop,hdop,vdop,sat01,sat02,sat03,sat04,sat05,sat06,sat07,sat08,sat09,sat10,sat11,sat12,sat13,sat14,sat15,sat16,sat17,sat18,sat19,sat20,sat21,sat22,sat23,sat24,sat25,sat26,sat27,sat28,sat29,sat30,sat31,sat32
6, 10859, 2,KI7APS,    -0.30, 3,   boost,   -0.00,  86017.00, 1360.17,   -0.76,    0.00, 42.9, 8.27, 8.29, 3.99,   9.87,  -0.85,  -1.06,   1.15,   0.00,   0.12,   0.00,   0.00,   0.32,   4.63, 8.27, 0.00, 0.00, 0.00, 0.00, 1, 1, 11,  32.9393122,-106.9117764,  1392.0, 2023,  6, 22, 20, 22, 57,        0,        0,   0,   0,   1.4,   0.8,   1.2,  0,  0,  0,  0, 39,  0,  0,  0,  0, 35, 31, 27, 35,  0, 23, 34,  0, 42,  0, 31,  0,  0, 36,  0, 26, 37,  0,  0,  0,  0,  0,  0
6, 10859, 2,KI7APS,    -0.29, 3,   boost,    1.51,  86017.00, 1360.17,   -0.76,    0.01, 42.9, 8.27, 8.29, 3.99,   9.87,  -0.61,  -0.93,   0.54,  -0.18,   0.36,   0.00,   0.00,   0.32,   4.63, 8.27, 0.00, 0.00, 0.00, 0.00, 1, 1, 11,  32.9393122,-106.9117764,  1392.0, 2023,  6, 22, 20, 22, 57,        0,        0,   0,   0,   1.4,   0.8,   1.2,  0,  0,  0,  0, 39,  0,  0,  0,  0, 35, 31, 27, 35,  0, 23, 34,  0, 42,  0, 31,  0,  0, 36,  0, 26, 37,  0,  0,  0,  0,  0,  0
6, 10859, 2,KI7APS,    -0.28, 3,   boost,   -0.00,  86023.00, 1359.60,   -1.33,    0.01, 42.9, 8.27, 8.29, 3.99,   9.81,  -0.37,  -0.64,  -0.25,  -0.36,   0.42,   0.00,   0.00,   0.32,   4.63, 8.27, 0.00, 0.00, 0.00, 0.00, 1, 1, 11,  32.9393122,-106.9117764,  1392.0, 2023,  6, 22, 20, 22, 57,        0,        0,   0,   0,   1.4,   0.8,   1.2,  0,  0,  0,  0, 39,  0,  0,  0,  0, 35, 31, 27, 35,  0, 23, 34,  0, 42,  0, 31,  0,  0, 36,  0, 26, 37,  0,  0,  0,  0,  0,  0
6, 10859, 2,KI7APS,    -0.27, 3,   boost,   -0.00,  86023.00, 1359.60,   -1.33,    0.01, 42.9, 8.27, 8.29, 3.99,   9.80,  -0.16,  -0.39,  -1.35,  -0.79,   0.79,   0.00,   0.00,   0.32,   4.63, 8.27, 0.00, 0.00, 0.00, 0.00, 1, 1, 11,  32.9393122,-106.9117764,  1392.0, 2023,  6, 22, 20, 22, 57,        0,        0,   0,   0,   1.4,   0.8,   1.2,  0,  0,  0,  0, 39,  0,  0,  0,  0, 35, 31, 27, 35,  0, 23, 34,  0, 42,  0, 31,  0,  0, 36,  0, 26, 37,  0,  0,  0,  0,  0,  0
6, 10859, 2,KI7APS,    -0.26, 3,   boost,   -0.50,  86031.00, 1358.84,   -2.09,    0.01, 42.9, 8.27, 8.29, 3.99,  10.01,  -0.05,  -0.29,  -2.02,  -0.67,   0.24,   0.00,   0.00,   0.32,   4.63, 8.27, 0.00, 0.00, 0.00, 0.00, 1, 1, 11,  32.9393122,-106.9117764,  1392.0, 2023,  6, 22, 20, 22, 57,        0,        0,   0,   0,   1.4,   0.8,   1.2,  0,  0,  0,  0, 39,  0,  0,  0,  0, 35, 31, 27, 35,  0, 23, 34,  0, 42,  0, 31,  0,  0, 36,  0, 26, 37,  0,  0,  0,  0,  0,  0
6, 10859, 2,KI7APS,    -0.25, 3,   boost,   -1.01,  86031.00, 1358.84,   -2.09,    0.01, 42.9, 8.27, 8.29, 3.99,  10.03,  -0.14,  -0.32,  -1.29,  -0.18,  -0.19,   0.00,   0.00,   0.32,   4.63, 8.27, 0.00, 0.00, 0.00, 0.00, 1, 1, 11,  32.9393122,-106.9117764,  1392.0, 2023,  6, 22, 20, 22, 57,        0,        0,   0,   0,   1.4,   0.8,   1.2,  0,  0,  0,  0, 39,  0,  0,  0,  0, 35, 31, 27, 35,  0, 23, 34,  0, 42,  0, 31,  0,  0, 36,  0, 26, 37,  0,  0,  0,  0,  0,  0
6, 10859, 2,KI7APS,    -0.24, 3,   boost,    0.50,  86029.00, 1359.03,   -1.90,    0.00, 42.9, 8.27, 8.29, 3.99,   9.88,  -0.16,  -0.25,  -0.07,  -0.24,  -0.43,   0.00,   0.00,   0.32,   4.63, 8.27, 0.00, 0.00, 0.00, 0.00, 1, 1, 11,  32.9393122,-106.9117764,  1392.0, 2023,  6, 22, 20, 22, 57,        0,        0,   0,   0,   1.4,   0.8,   1.2,  0,  0,  0,  0, 39,  0,  0,  0,  0, 35, 31, 27, 35,  0, 23, 34,  0, 42,  0, 31,  0,  0, 36,  0, 26, 37,  0,  0,  0,  0,  0,  0
6, 10859, 2,KI7APS,    -0.23, 3,   boost,   -0.50,  86029.00, 1359.03,   -1.90,    0.00, 42.9, 8.27, 8.29, 3.99,   9.86,  -0.10,  -0.44,   0.91,  -0.12,  -0.86,   0.00,   0.00,   0.32,   4.63, 8.27, 0.00, 0.00, 0.00, 0.00, 1, 1, 11,  32.9393122,-106.9117764,  1392.0, 2023,  6, 22, 20, 22, 57,        0,        0,   0,   0,   1.4,   0.8,   1.2,  0,  0,  0,  0, 39,  0,  0,  0,  0, 35, 31, 27, 35,  0, 23, 34,  0, 42,  0, 31,  0,  0, 36,  0, 26, 37,  0,  0,  0,  0,  0,  0
6, 10859, 2,KI7APS,    -0.22, 3,   boost,    0.50,  86011.00, 1360.74,   -0.19,    0.00, 42.9, 8.27, 8.29, 3.99,   9.87,  -0.40,  -0.65,   1.03,  -0.12,  -0.86,   0.00,   0.00,   0.32,   4.63, 8.27, 0.00, 0.00, 0.00, 0.00, 1, 1, 11,  32.9393122,-106.9117764,  1392.0, 2023,  6, 22, 20, 22, 57,        0,        0,   0,   0,   1.4,   0.8,   1.2,  0,  0,  0,  0, 39,  0,  0,  0,  0, 35, 31, 27, 35,  0, 23, 34,  0, 42,  0, 31,  0,  0, 36,  0, 26, 37,  0,  0,  0,  0,  0,  0
6, 10859, 2,KI7APS,    -0.21, 3,   boost,   -1.01,  86011.00, 1360.74,   -0.19,    0.00, 42.9, 8.27, 8.29, 3.99,   9.87,  -0.61,  -0.91,   0.17,  -0.30,  -0.80,   0.00,   0.00,   0.32,   4.63, 8.27, 0.00, 0.00, 0.00, 0.00, 1, 1, 11,  32.9393122,-106.9117764,  1392.0, 2023,  6, 22, 20, 22, 57,        0,        0,   0,   0,   1.4,   0.8,   1.2,  0,  0,  0,  0, 39,  0,  0,  0,  0, 35, 31, 27, 35,  0, 23, 34,  0, 42,  0, 31,  0,  0, 36,  0, 26, 37,  0,  0,  0,  0,  0,  0
6, 10859, 2,KI7APS,    -0.20, 3,   boost,    1.01,  86024.00, 1359.51,   -1.43,    0.00, 42.9, 8.27, 8.29, 3.99,   9.84,  -0.73,  -1.09,  -0.44,  -0.55,  -1.04,   0.00,   0.00,   0.32,   4.63, 8.27, 0.00, 0.00, 0.00, 0.00, 1, 1, 11,  32.9393122,-106.9117764,  1392.0, 2023,  6, 22, 20, 22, 57,        0,        0,   0,   0,   1.4,   0.8,   1.2,  0,  0,  0,  0, 39,  0,  0,  0,  0, 35, 31, 27, 35,  0, 23, 34,  0, 42,  0, 31,  0,  0, 36,  0, 26, 37,  0,  0,  0,  0,  0,  0
6, 10859, 2,KI7APS,    -0.19, 3,   boost,    1.51,  86024.00, 1359.51,   -1.43,    0.01, 42.9, 8.27, 8.29, 3.99,   9.89,  -0.95,  -1.14,  -1.29,  -0.49,  -0.62,   0.00,   0.00,   0.32,   4.63, 8.27, 0.00, 0.00, 0.00, 0.00, 1, 1, 11,  32.9393122,-106.9117764,  1392.0, 2023,  6, 22, 20, 22, 57,        0,        0,   0,   0,   1.4,   0.8,   1.2,  0,  0,  0,  0, 39,  0,  0,  0,  0, 35, 31, 27, 35,  0, 23, 34,  0, 42,  0, 31,  0,  0, 36,  0, 26, 37,  0,  0,  0,  0,  0,  0
6, 10859, 2,KI7APS,    -0.18, 3,   boost,   -1.01,  86026.00, 1359.32,   -1.62,    0.01, 42.9, 8.27, 8.29, 3.99,   9.79,  -0.91,  -1.13,  -1.96,  -0.97,  -0.50,   0.00,   0.00,   0.32,   4.63, 8.27, 0.00, 0.00, 0.00, 0.00, 1, 1, 11,  32.9393122,-106.9117764,  1392.0, 2023,  6, 22, 20, 22, 57,        0,        0,   0,   0,   1.4,   0.8,   1.2,  0,  0,  0,  0, 39,  0,  0,  0,  0, 35, 31, 27, 35,  0, 23, 34,  0, 42,  0, 31,  0,  0, 36,  0, 26, 37,  0,  0,  0,  0,  0,  0
6, 10859, 2,KI7APS,    -0.17, 3,   boost,    0.50,  86026.00, 1359.32,   -1.62,    0.01, 42.9, 8.27, 8.29, 3.99,   9.70,  -0.75,  -0.84,  -3.12,  -1.22,  -0.25,   0.00,   0.00,   0.32,   4.63, 8.27, 0.00, 0.00, 0.00, 0.00, 1, 1, 11,  32.9393122,-106.9117764,  1392.0, 2023,  6, 22, 20, 22, 57,        0,        0,   0,   0,   1.4,   0.8,   1.2,  0,  0,  0,  0, 39,  0,  0,  0,  0, 35, 31, 27, 35,  0, 23, 34,  0, 42,  0, 31,  0,  0, 36,  0, 26, 37,  0,  0,  0,  0,  0,  0
6, 10859, 2,KI7APS,    -0.16, 3,   boost,    1.01,  86024.00, 1359.51,   -1.43,    0.01, 42.9, 8.27, 8.29, 3.99,   9.79,  -0.52,  -0.55,  -4.59,  -0.91,   0.12,   0.00,   0.00,   0.32,   4.63, 8.27, 0.00, 0.00, 0.00, 0.00, 1, 1, 11,  32.9393122,-106.9117764,  1392.0, 2023,  6, 22, 20, 22, 57,        0,        0,   0,   0,   1.4,   0.8,   1.2,  0,  0,  0,  0, 39,  0,  0,  0,  0, 35, 31, 27, 35,  0, 23, 34,  0, 42,  0, 31,  0,  0, 36,  0, 26, 37,  0,  0,  0,  0,  0,  0
6, 10859, 2,KI7APS,    -0.15, 3,   boost,   -0.50,  86024.00, 1359.51,   -1.43,    0.02, 42.9, 8.27, 8.29, 3.99,  10.00,  -0.49,  -0.43,  -5.20,  -1.22,   0.18,   0.00,   0.00,   0.32,   4.63, 8.27, 0.00, 0.00, 0.00, 0.00, 1, 1, 11,  32.9393122,-106.9117764,  1392.0, 2023,  6, 22, 20, 22, 57,        0,        0,   0,   0,   1.4,   0.8,   1.2,  0,  0,  0,  0, 39,  0,  0,  0,  0, 35, 31, 27, 35,  0, 23, 34,  0, 42,  0, 31,  0,  0, 36,  0, 26, 37,  0,  0,  0,  0,  0,  0
6, 10859, 2,KI7APS,    -0.14, 3,   boost,   -0.50,  86021.00, 1359.79,   -1.14,    0.04, 42.9, 8.27, 8.29, 3.99,   9.99,  -0.35,  -0.17,  -5.08,  -0.79,  -0.07,   0.00,   0.00,   0.32,   4.63, 8.27, 0.00, 0.00, 0.00, 0.00, 1, 1, 11,  32.9393122,-106.9117764,  1392.0, 2023,  6, 22, 20, 22, 57,        0,        0,   0,   0,   1.4,   0.8,   1.2,  0,  0,  0,  0, 39,  0,  0,  0,  0, 35, 31, 27, 35,  0, 23, 34,  0, 42,  0, 31,  0,  0, 36,  0, 26, 37,  0,  0,  0,  0,  0,  0
6, 10859, 2,KI7APS,    -0.13, 3,   boost,    0.50,  86021.00, 1359.79,   -1.14,    0.10, 42.9, 8.27, 8.29, 3.99,   9.91,  -0.27,   0.08,  -4.16,  -0.55,  -0.50,   0.00,   0.00,   0.32,   4.63, 8.27, 0.00, 0.00, 0.00, 0.00, 1, 1, 11,  32.9393122,-106.9117764,  1392.0, 2023,  6, 22, 20, 22, 57,        0,        0,   0,   0,   1.4,   0.8,   1.2,  0,  0,  0,  0, 39,  0,  0,  0,  0, 35, 31, 27, 35,  0, 23, 34,  0, 42,  0, 31,  0,  0, 36,  0, 26, 37,  0,  0,  0,  0,  0,  0
6, 10859, 2,KI7APS,    -0.12, 3,   boost,    4.53,  86016.00, 1360.27,   -0.67,    0.21, 42.9, 8.27, 8.29, 3.99,   9.99,  -0.22,   0.13,  -3.18,  -0.49,  -0.92,   0.00,   0.00,   0.32,   4.63, 8.27, 0.00, 0.00, 0.00, 0.00, 1, 1, 11,  32.9393122,-106.9117764,  1392.0, 2023,  6, 22, 20, 22, 57,        0,        0,   0,   0,   1.4,   0.8,   1.2,  0,  0,  0,  0, 39,  0,  0,  0,  0, 35, 31, 27, 35,  0, 23, 34,  0, 42,  0, 31,  0,  0, 36,  0, 26, 37,  0,  0,  0,  0,  0,  0
6, 10859, 2,KI7APS,    -0.11, 3,   boost,   30.68,  86016.00, 1360.27,   -0.67,    0.41, 42.9, 8.27, 8.29, 3.99,  13.59,   0.17,   0.21,  -1.90,  -1.40,  -0.37,   0.00,   0.00,   0.32,   4.63, 8.27, 0.00, 0.00, 0.00, 0.00, 1, 1, 11,  32.9393122,-106.9117764,  1392.0, 2023,  6, 22, 20, 22, 57,        0,        0,   0,   0,   1.4,   0.8,   1.2,  0,  0,  0,  0, 39,  0,  0,  0,  0, 35, 31, 27, 35,  0, 23, 34,  0, 42,  0, 31,  0,  0, 36,  0, 26, 37,  0,  0,  0,  0,  0,  0
6, 10859, 2,KI7APS,    -0.10, 3,   boost,   41.24,  86026.00, 1359.32,   -1.62,    0.68, 42.9, 8.27, 8.29, 3.99,  11.54,  -2.63,  -2.10,  -0.07,  -2.26,  -0.07,   0.00,   0.00,   0.32,   4.63, 8.27, 0.00, 0.00, 0.00, 0.00, 1, 1, 11,  32.9393122,-106.9117764,  1392.0, 2023,  6, 22, 20, 22, 57,        0,        0,   0,   0,   1.4,   0.8,   1.2,  0,  0,  0,  0, 39,  0,  0,  0,  0, 35, 31, 27, 35,  0, 23, 34,  0, 42,  0, 31,  0,  0, 36,  0, 26, 37,  0,  0,  0,  0,  0,  0
6, 10859, 2,KI7APS,    -0.09, 3,   boost,   37.72,  86026.00, 1359.32,   -1.62,    1.03, 42.9, 8.27, 8.29, 3.99,  48.51,  -0.55,  -3.55,  -3.31,   1.77,  -1.53,   0.00,   0.00,   0.32,   4.63, 8.27, 0.00, 0.00, 0.00, 0.00, 1, 1, 11,  32.9393122,-106.9117764,  1392.0, 2023,  6, 22, 20, 22, 57,        0,        0,   0,   0,   1.4,   0.8,   1.2,  0,  0,  0,  0, 39,  0,  0,  0,  0, 35, 31, 27, 35,  0, 23, 34,  0, 42,  0, 31,  0,  0, 36,  0, 26, 37,  0,  0,  0,  0,  0,  0
6, 10859, 2,KI7APS,    -0.08, 3,   boost,   42.75,  86102.00, 1352.09,   -8.84,    1.44, 42.9, 8.27, 8.29, 3.99,  48.14,   1.51,  -1.78, -10.32,   3.72,  -0.50,   0.00,   0.00,   0.32,   4.63, 8.27, 0.00, 0.00, 0.00, 0.00, 1, 1, 11,  32.9393122,-106.9117764,  1392.0, 2023,  6, 22, 20, 22, 57,        0,        0,   0,   0,   1.4,   0.8,   1.2,  0,  0,  0,  0, 39,  0,  0,  0,  0, 35, 31, 27, 35,  0, 23, 34,  0, 42,  0, 31,  0,  0, 36,  0, 26, 37,  0,  0,  0,  0,  0,  0
6, 10859, 2,KI7APS,    -0.07, 3,   boost,   49.28,  86102.00, 1352.09,   -8.84,    1.90, 42.9, 8.27, 8.29, 3.99,  47.80,   0.62,   0.71, -15.27,   4.58,  -1.35,   0.00,   0.00,   0.32,   4.63, 8.27, 0.00, 0.00, 0.00, 0.00, 1, 1, 11,  32.9393122,-106.9117764,  1392.0, 2023,  6, 22, 20, 22, 57,        0,        0,   0,   0,   1.4,   0.8,   1.2,  0,  0,  0,  0, 39,  0,  0,  0,  0, 35, 31, 27, 35,  0, 23, 34,  0, 42,  0, 31,  0,  0, 36,  0, 26, 37,  0,  0,  0,  0,  0,  0
6, 10859, 2,KI7APS,    -0.06, 3,   boost,   54.31,  86016.00, 1360.27,   -0.67,    2.42, 42.9, 8.27, 8.29, 3.99,  56.88,  -2.09,   2.10, -15.27,   3.48,  -2.88,   0.00,  -0.00,   0.32,   4.63, 8.27, 0.00, 0.00, 0.00, 0.00, 1, 1, 11,  32.9393122,-106.9117764,  1392.0, 2023,  6, 22, 20, 22, 57,        0,        0,   0,   0,   1.4,   0.8,   1.2,  0,  0,  0,  0, 39,  0,  0,  0,  0, 35, 31, 27, 35,  0, 23, 34,  0, 42,  0, 31,  0,  0, 36,  0, 26, 37,  0,  0,  0,  0,  0,  0
6, 10859, 2,KI7APS,    -0.05, 3,   boost,   59.34,  86016.00, 1360.27,   -0.67,    2.97, 42.9, 8.27, 8.29, 3.99,  62.90,   0.11,   1.32, -23.63,  -1.77,  -2.14,   0.00,  -0.00,   0.32,   4.63, 8.27, 0.00, 0.00, 0.00, 0.00, 1, 1, 11,  32.9393122,-106.9117764,  1392.0, 2023,  6, 22, 20, 22, 57,        0,        0,   0,   0,   1.4,   0.8,   1.2,  0,  0,  0,  0, 39,  0,  0,  0,  0, 35, 31, 27, 35,  0, 23, 34,  0, 42,  0, 31,  0,  0, 36,  0, 26, 37,  0,  0,  0,  0,  0,  0
6, 10859, 2,KI7APS,    -0.04, 3,   boost,   63.37,  86010.00, 1360.84,   -0.10,    3.56, 42.9, 8.27, 8.29, 3.99,  68.27,   3.10,   2.00,   4.51,  -5.55,   2.19,   0.00,  -0.00,   0.32,   4.63, 8.27, 0.00, 0.00, 0.00, 0.00, 1, 1, 11,  32.9393122,-106.9117764,  1392.0, 2023,  6, 22, 20, 22, 57,        0,        0,   0,   0,   1.4,   0.8,   1.2,  0,  0,  0,  0, 39,  0,  0,  0,  0, 35, 31, 27, 35,  0, 23, 34,  0, 42,  0, 31,  0,  0, 36,  0, 26, 37,  0,  0,  0,  0,  0,  0
6, 10859, 2,KI7APS,    -0.03, 3,   boost,   64.87,  86010.00, 1360.84,   -0.10,    4.19, 42.9, 8.27, 8.29, 3.99,  68.78,  -1.34,   0.58,   5.06,  -5.00,   4.39,   0.00,  -0.00,   0.32,   4.63, 8.27, 0.00, 0.00, 0.00, 0.00, 1, 1, 11,  32.9393122,-106.9117764,  1392.0, 2023,  6, 22, 20, 22, 57,        0,        0,   0,   0,   1.4,   0.8,   1.2,  0,  0,  0,  0, 39,  0,  0,  0,  0, 35, 31, 27, 35,  0, 23, 34,  0, 42,  0, 31,  0,  0, 36,  0, 26, 37,  0,  0,  0,  0,  0,  0
6, 10859, 2,KI7APS,    -0.02, 3,   boost,   66.89,  86012.00, 1360.65,   -0.29,    4.84, 42.9, 8.27, 8.29, 3.99,  71.97,  -6.45,  -4.16,   3.90,   0.00,   4.63,   0.00,  -0.00,   0.32,   4.63, 8.27, 0.00, 0.00, 0.00, 0.00, 1, 1, 11,  32.9393122,-106.9117764,  1392.0, 2023,  6, 22, 20, 22, 57,        0,        0,   0,   0,   1.4,   0.8,   1.2,  0,  0,  0,  0, 39,  0,  0,  0,  0, 35, 31, 27, 35,  0, 23, 34,  0, 42,  0, 31,  0,  0, 36,  0, 26, 37,  0,  0,  0,  0,  0,  0
6, 10859, 2,KI7APS,    -0.01, 3,   boost,   69.40,  86012.00, 1360.65,   -0.29,    5.49, 42.9, 8.27, 8.29, 3.99,  73.91,  -3.94,  -5.96,  11.46,   4.46,   1.27,   0.00,  -0.00,   0.32,   4.63, 8.27, 0.00, 0.00, 0.00, 0.00, 1, 1, 11,  32.9393122,-106.9117764,  1392.0, 2023,  6, 22, 20, 22, 57,        0,        0,   0,   0,   1.4,   0.8,   1.2,  0,  0,  0,  0, 39,  0,  0,  0,  0, 35, 31, 27, 35,  0, 23, 34,  0, 42,  0, 31,  0,  0, 36,  0, 26, 37,  0,  0,  0,  0,  0,  0
6, 10859, 2,KI7APS,     0.00, 3,   boost,   71.92,  85999.00, 1361.88,    0.95,    6.16, 42.9, 8.27, 8.29, 3.99,  75.97,   0.58,  -2.09,  20.93,   5.01,  -2.94,   0.00,   0.00,   0.32,   4.63, 8.27, 0.00, 0.00, 0.00, 0.00, 1, 1, 11,  32.9393122,-106.9117764,  1392.0, 2023,  6, 22, 20, 22, 57,        0,        0,   0,   0,   1.4,   0.8,   1.2,  0,  0,  0,  0, 39,  0,  0,  0,  0, 35, 31, 27, 35,  0, 23, 34,  0, 42,  0, 31,  0,  0, 36,  0, 26, 37,  0,  0,  0,  0,  0,  0
6, 10859, 2,KI7APS,     0.00, 3,   boost,   71.92,  85999.00, 1361.88,    0.95,    6.16, 42.9, 8.27, 8.29, 3.99,  75.97,   0.58,  -2.09,  20.93,   5.01,  -2.94,   0.00,   0.00,   0.32,   4.63, 8.27, 0.00, 0.00, 0.00, 0.00, 1, 1, 11,  32.9393122,-106.9117764,  1392.0, 2023,  6, 22, 20, 22, 57,        0,        0,   0,   0,   1.4,   0.8,   1.2,  0,  0,  0,  0, 39,  0,  0,  0,  0, 35, 31, 27, 35,  0, 23, 34,  0, 42,  0, 31,  0,  0, 36,  0, 26, 37,  0,  0,  0,  0,  0,  0
6, 10859, 2,KI7APS,     0.00, 3,   boost,   71.92,  85999.00, 1361.88,    0.95,    6.16, 42.9, 8.27, 8.29, 3.99,  75.97,   0.58,  -2.09,  20.93,   5.01,  -2.94,   0.00,   0.00,   0.32,   4.63, 8.27, 0.00, 0.00, 0.00, 0.00, 1, 1, 11,  32.9393122,-106.9117764,  1392.0, 2023,  6, 22, 20, 22, 57,        0,        0,   0,   0,   1.4,   0.8,   1.2,  0,  0,  0,  0, 39,  0,  0,  0,  0, 35, 31, 27, 35,  0, 23, 34,  0, 42,  0, 31,  0,  0, 36,  0, 26, 37,  0,  0,  0,  0,  0,  0
6, 10859, 2,KI7APS,     0.00, 3,   boost,   71.92,  85999.00, 1361.88,    0.95,    6.16, 42.9, 8.27, 8.29, 3.99,  75.97,   0.58,  -2.09,  20.93,   5.01,  -2.94,   0.00,   0.00,   0.32,   4.63, 8.27, 0.00, 0.00, 0.00, 0.00, 1, 1, 11,  32.9393122,-106.9117764,  1392.0, 2023,  6, 22, 20, 22, 57,        0,        0,   0,   0,   1.4,   0.8,   1.2,  0,  0,  0,  0, 39,  0,  0,  0,  0, 35, 31, 27, 35,  0, 23, 34,  0, 42,  0, 31,  0,  0, 36,  0, 26, 37,  0,  0,  0,  0,  0,  0
6, 10859, 2,KI7APS,     0.00, 3,   boost,   71.92,  85999.00, 1361.88,    0.95,    6.16, 42.9, 8.27, 8.29, 3.99,  75.97,   0.58,  -2.09,  20.93,   5.01,  -2.94,   0.00,   0.00,   0.32,   4.63, 8.27, 0.00, 0.00, 0.00, 0.00, 1, 1, 11,  32.9393122,-106.9117764,  1392.0, 2023,  6, 22, 20, 22, 57,        0,        0,   0,   0,   1.4,   0.8,   1.2,  0,  0,  0,  0, 39,  0,  0,  0,  0, 35, 31, 27, 35,  0, 23, 34,  0, 42,  0, 31,  0,  0, 36,  0, 26, 37,  0,  0,  0,  0,  0,  0
6, 10859, 2,KI7APS,     0.00, 3,   boost,   71.92,  85999.00, 1361.88,    0.95,    6.16, 42.9, 8.27, 8.29, 3.99,  75.97,   0.58,  -2.09,  20.93,   5.01,  -2.94,   0.00,   0.00,   0.32,   4.63, 8.27, 0.00, 0.00, 0.00, 0.00, 1, 1, 11,  32.9393122,-106.9117764,  1392.0, 2023,  6, 22, 20, 22, 57,        0,        0,   0,   0,   1.4,   0.8,   1.2,  0,  0,  0,  0, 39,  0,  0,  0,  0, 35, 31, 27, 35,  0, 23, 34,  0, 42,  0, 31,  0,  0, 36,  0, 26, 37,  0,  0,  0,  0,  0,  0
6, 10859, 2,KI7APS,     0.00, 3,   boost,   71.92,  85999.00, 1361.88,    0.95,    6.16, 42.9, 8.27, 8.29, 3.99,  75.97,   0.58,  -2.09,  20.93,   5.01,  -2.94,   0.00,   0.00,   0.32,   4.62, 8.27, 0.00, 0.00, 0.00, 0.00, 1, 1, 11,  32.9393122,-106.9117764,  1392.0, 2023,  6, 22, 20, 22, 57,        0,        0,   0,   0,   1.4,   0.8,   1.2,  0,  0,  0,  0, 39,  0,  0,  0,  0, 35, 31, 27, 35,  0, 23, 34,  0, 42,  0, 31,  0,  0, 36,  0, 26, 37,  0,  0,  0,  0,  0,  0
6, 10859, 2,KI7APS,     0.00, 3,   boost,   71.92,  85999.00, 1361.88,    0.95,    6.16, 42.9, 8.27, 8.29, 3.99,  75.97,   0.58,  -2.09,  20.93,   5.01,  -2.94,   0.00,   0.00,   0.32,   4.61, 8.27, 0.00, 0.00, 0.00, 0.00, 1, 1, 11,  32.9393122,-106.9117764,  1392.0, 2023,  6, 22, 20, 22, 57,        0,        0,   0,   0,   1.4,   0.8,   1.2,  0,  0,  0,  0, 39,  0,  0,  0,  0, 35, 31, 27, 35,  0, 23, 34,  0, 42,  0, 31,  0,  0, 36,  0, 26, 37,  0,  0,  0,  0,  0,  0
6, 10859, 2,KI7APS,     0.00, 3,   boost,   71.92,  85999.00, 1361.88,    0.95,    6.16, 42.9, 8.27, 8.29, 3.99,  75.97,   0.58,  -2.09,  20.93,   5.01,  -2.94,   0.00,   0.00,   0.32,   4.60, 8.27, 0.00, 0.00, 0.00, 0.00, 1, 1, 11,  32.9393122,-106.9117764,  1392.0, 2023,  6, 22, 20, 22, 57,        0,        0,   0,   0,   1.4,   0.8,   1.2,  0,  0,  0,  0, 39,  0,  0,  0,  0, 35, 31, 27, 35,  0, 23, 34,  0, 42,  0, 31,  0,  0, 36,  0, 26, 37,  0,  0,  0,  0,  0,  0
6, 10859, 2,KI7APS,     0.00, 3,   boost,   71.92,  85999.00, 1361.88,    0.95,    6.16, 42.9, 8.27, 8.29, 3.99,  75.97,   0.58,  -2.09,  20.93,   5.01,  -2.94,   0.00,   0.00,   0.32,   4.60, 8.27, 0.00, 0.00, 0.00, 0.00, 1, 1, 11,  32.9393122,-106.9117764,  1392.0, 2023,  6, 22, 20, 22, 57,        0,        0,   0,   0,   1.4,   0.8,   1.2,  0,  0,  0,  0, 39,  0,  0,  0,  0, 35, 31, 27, 35,  0, 23, 34,  0, 42,  0, 31,  0,  0, 36,  0, 26, 37,  0,  0,  0,  0,  0,  0
6, 10859, 2,KI7APS,     0.00, 3,   boost,   71.92,  85999.00, 1361.88,    0.95,    6.16, 42.9, 8.27, 8.29, 3.99,  75.97,   0.58,  -2.09,  20.93,   5.01,  -2.94,   0.00,   0.00,   0.32,   4.61, 8.27, 0.00, 0.00, 0.00, 0.00, 1, 1, 11,  32.9393122,-106.9117764,  1392.0, 2023,  6, 22, 20, 22, 57,        0,        0,   0,   0,   1.4,   0.8,   1.2,  0,  0,  0,  0, 39,  0,  0,  0,  0, 35, 31, 27, 35,  0, 23, 34,  0, 42,  0, 31,  0,  0, 36,  0, 26, 37,  0,  0,  0,  0,  0,  0
6, 10859, 2,KI7APS,     0.00, 3,   boost,   71.92,  85999.00, 1361.88,    0.95,    6.16, 42.9, 8.27, 8.29, 3.99,  75.97,   0.58,  -2.09,  20.93,   5.01,  -2.94,   0.00,   0.00,   0.32,   4.61, 8.27, 0.00, 0.00, 0.00, 0.00, 1, 1, 11,  32.9393122,-106.9117764,  1392.0, 2023,  6, 22, 20, 22, 57,        0,        0,   0,   0,   1.4,   0.8,   1.2,  0,  0,  0,  0, 39,  0,  0,  0,  0, 35, 31, 27, 35,  0, 23, 34,  0, 42,  0, 31,  0,  0, 36,  0, 26, 37,  0,  0,  0,  0,  0,  0
6, 10859, 2,KI7APS,     0.00, 3,   boost,   71.92,  85999.00, 1361.88,    0.95,    6.16, 42.9, 8.27, 8.29, 3.99,  75.97,   0.58,  -2.09,  20.93,   5.01,  -2.94,   0.00,   0.00,   0.32,   4.62, 8.27, 0.00, 0.00, 0.00, 0.00, 1, 1, 11,  32.9393122,-106.9117764,  1392.0, 2023,  6, 22, 20, 22, 57,        0,        0,   0,   0,   1.4,   0.8,   1.2,  0,  0,  0,  0, 39,  0,  0,  0,  0, 35, 31, 27, 35,  0, 23, 34,  0, 42,  0, 31,  0,  0, 36,  0, 26, 37,  0,  0,  0,  0,  0,  0
6, 10859, 2,KI7APS,     0.00, 3,   boost,   71.92,  85999.00, 1361.88,    0.95,    6.16, 42.9, 8.27, 8.29, 3.99,  75.97,   0.58,  -2.09,  20.93,   5.01,  -2.94,   0.00,   0.00,   0.32,   4.62, 8.27, 0.00, 0.00, 0.00, 0.00, 1, 1, 11,  32.9393122,-106.9117764,  1392.0, 2023,  6, 22, 20, 22, 57,        0,        0,   0,   0,   1.4,   0.8,   1.2,  0,  0,  0,  0, 39,  0,  0,  0,  0, 35, 31, 27, 35,  0, 23, 34,  0, 42,  0, 31,  0,  0, 36,  0, 26, 37,  0,  0,  0,  0,  0,  0
6, 10859, 2,KI7APS,     0.00, 3,   boost,   71.92,  85999.00, 1361.88,    0.95,    6.16, 42.9, 8.27, 8.29, 3.99,  75.97,   0.58,  -2.09,  20.93,   5.01,  -2.94,   0.00,   0.00,   0.32,   4.63, 8.27, 0.00, 0.00, 0.00, 0.00, 1, 1, 11,  32.9393122,-106.9117764,  1392.0, 2023,  6, 22, 20, 22, 57,        0,        0,   0,   0,   1.4,   0.8,   1.2,  0,  0,  0,  0, 39,  0,  0,  0,  0, 35, 31, 27, 35,  0, 23, 34,  0, 42,  0, 31,  0,  0, 36,  0, 26, 37,  0,  0,  0,  0,  0,  0
6, 10859, 2,KI7APS,     0.00, 3,   boost,   71.92,  85999.00, 1361.88,    0.95,    6.16, 42.9, 8.27, 8.29, 3.99,  75.97,   0.58,  -2.09,  20.93,   5.01,  -2.94,   0.00,   0.00,   0.32,   4.63, 8.27, 0.00, 0.00, 0.00, 0.00, 1, 1, 11,  32.9393122,-106.9117764,  1392.0, 2023,  6, 22, 20, 22, 57,        0,        0,   0,   0,   1.4,   0.8,   1.2,  0,  0,  0,  0, 39,  0,  0,  0,  0, 35, 31, 27, 35,  0, 23, 34,  0, 42,  0, 31,  0,  0, 36,  0, 26, 37,  0,  0,  0,  0,  0,  0
6, 10859, 2,KI7APS,     0.00, 3,   boost,   71.92,  85999.00, 1361.88,    0.95,    6.16, 42.9, 8.27, 8.29, 3.99,  75.97,   0.58,  -2.09,  20.93,   5.01,  -2.94,   0.00,   0.00,   0.32,   4.63, 8.27, 0.00, 0.00, 0.00, 0.00, 1, 1, 11,  32.9393122,-106.9117764,  1392.0, 2023,  6, 22, 20, 22, 57,        0,        0,   0,   0,   1.4,   0.8,   1.2,  0,  0,  0,  0, 39,  0,  0,  0,  0, 35, 31, 27, 35,  0, 23, 34,  0, 42,  0, 31,  0,  0, 36,  0, 26, 37,  0,  0,  0,  0,  0,  0
6, 10859, 2,KI7APS,     0.00, 3,   boost,   71.92,  85999.00, 1361.88,    0.95,    6.16, 42.9, 8.27, 8.29, 3.99,  75.97,   0.58,  -2.09,  20.93,   5.01,  -2.94,   0.00,   0.00,   0.32,   4.62, 8.27, 0.00, 0.00, 0.00, 0.00, 1, 1, 11,  32.9393122,-106.9117764,  1392.0, 2023,  6, 22, 20, 22, 57,        0,        0,   0,   0,   1.4,   0.8,   1.2,  0,  0,  0,  0, 39,  0,  0,  0,  0, 35, 31, 27, 35,  0, 23, 34,  0, 42,  0, 31,  0,  0, 36,  0, 26, 37,  0,  0,  0,  0,  0,  0
6, 10859, 2,KI7APS,     0.00, 3,   boost,   71.92,  85999.00, 1361.88,    0.95,    6.16, 42.9, 8.27, 8.29, 3.99,  75.97,   0.58,  -2.09,  20.93,   5.01,  -2.94,   0.00,   0.00,   0.32,   4.62, 8.27, 0.00, 0.00, 0.00, 0.00, 1, 1, 11,  32.9393122,-106.9117764,  1392.0, 2023,  6, 22, 20, 22, 57,        0,        0,   0,   0,   1.4,   0.8,   1.2,  0,  0,  0,  0, 39,  0,  0,  0,  0, 35, 31, 27, 35,  0, 23, 34,  0, 42,  0, 31,  0,  0, 36,  0, 26, 37,  0,  0,  0,  0,  0,  0
6, 10859, 2,KI7APS,     0.00, 3,   boost,   71.92,  85999.00, 1361.88,    0.95,    6.16, 42.9, 8.27, 8.29, 3.99,  75.97,   0.58,  -2.09,  20.93,   5.01,  -2.94,   0.00,   0.00,   0.32,   4.61, 8.27, 0.00, 0.00, 0.00, 0.00, 1, 1, 11,  32.9393122,-106.9117764,  1392.0, 2023,  6, 22, 20, 22, 57,        0,        0,   0,   0,   1.4,   0.8,   1.2,  0,  0,  0,  0, 39,  0,  0,  0,  0, 35, 31, 27, 35,  0, 23, 34,  0, 42,  0, 31,  0,  0, 36,  0, 26, 37,  0,  0,  0,  0,  0,  0
6, 10859, 2,KI7APS,     0.00, 3,   boost,   71.92,  85999.00, 1361.88,    0.95,    6.16, 42.9, 8.27, 8.29, 3.99,  75.97,   0.58,  -2.09,  20.93,   5.01,  -2.94,   0.00,   0.00,   0.32,   4.61, 8.27, 0.00, 0.00, 0.00, 0.00, 1, 1, 11,  32.9393122,-106.9117764,  1392.0, 2023,  6, 22, 20, 22, 57,        0,        0,   0,   0,   1.4,   0.8,   1.2,  0,  0,  0,  0, 39,  0,  0,  0,  0, 35, 31, 27, 35,  0, 23, 34,  0, 42,  0, 31,  0,  0, 36,  0, 26, 37,  0,  0,  0,  0,  0,  0
6, 10859, 2,KI7APS,     0.00, 3,   boost,   71.92,  85999.00, 1361.88,    0.95,    6.16, 42.9, 8.27, 8.29, 3.99,  75.97,   0.58,  -2.09,  20.93,   5.01,  -2.94,   0.00,   0.00,   0.32,   4.61, 8.27, 0.00, 0.00, 0.00, 0.00, 1, 1, 11,  32.9393122,-106.9117764,  1392.0, 2023,  6, 22, 20, 22, 57,        0,        0,   0,   0,   1.4,   0.8,   1.2,  0,  0,  0,  0, 39,  0,  0,  0,  0, 35, 31, 27, 35,  0, 23, 34,  0, 42,  0, 31,  0,  0, 36,  0, 26, 37,  0,  0,  0,  0,  0,  0
6, 10859, 2,KI7APS,     0.00, 3,   boost,   71.92,  85999.00, 1361.88,    0.95,    6.16, 42.9, 8.27, 8.29, 3.99,  75.97,   0.58,  -2.09,  20.93,   5.01,  -2.94,   0.00,   0.00,   0.32,   4.61, 8.27, 0.00, 0.00, 0.00, 0.00, 1, 1, 11,  32.9393122,-106.9117764,  1392.0, 2023,  6, 22, 20, 22, 57,        0,        0,   0,   0,   1.4,   0.8,   1.2,  0,  0,  0,  0, 39,  0,  0,  0,  0, 35, 31, 27, 35,  0, 23, 34,  0, 42,  0, 31,  0,  0, 36,  0, 26, 37,  0,  0,  0,  0,  0,  0
6, 10859, 2,KI7APS,     0.00, 3,   boost,   71.92,  85999.00, 1361.88,    0.95,    6.16, 42.9, 8.27, 8.29, 3.99,  75.97,   0.58,  -2.09,  20.93,   5.01,  -2.94,   0.00,   0.00,   0.32,   4.61, 8.27, 0.00, 0.00, 0.00, 0.00, 1, 1, 11,  32.9393122,-106.9117764,  1392.0, 2023,  6, 22, 20, 22, 57,        0,        0,   0,   0,   1.4,   0.8,   1.2,  0,  0,  0,  0, 39,  0,  0,  0,  0, 35, 31, 27, 35,  0, 23, 34,  0, 42,  0, 31,  0,  0, 36,  0, 26, 37,  0,  0,  0,  0,  0,  0
6, 10859, 2,KI7APS,     0.00, 3,   boost,   71.92,  85999.00, 1361.88,    0.95,    6.16, 42.9, 8.27, 8.29, 3.99,  75.97,   0.58,  -2.09,  20.93,   5.01,  -2.94,   0.00,   0.00,   0.32,   4.60, 8.27, 0.00, 0.00, 0.00, 0.00, 1, 1, 11,  32.9393122,-106.9117764,  1392.0, 2023,  6, 22, 20, 22, 57,        0,        0,   0,   0,   1.4,   0.8,   1.2,  0,  0,  0,  0, 39,  0,  0,  0,  0, 35, 31, 27, 35,  0, 23, 34,  0, 42,  0, 31,  0,  0, 36,  0, 26, 37,  0,  0,  0,  0,  0,  0
6, 10859, 2,KI7APS,     0.00, 3,   boost,   71.92,  85999.00, 1361.88,    0.95,    6.16, 42.9, 8.27, 8.29, 3.99,  75.97,   0.58,  -2.09,  20.93,   5.01,  -2.94,   0.00,   0.00,   0.32,   4.62, 8.27, 0.00, 0.00, 0.00, 0.00, 1, 1, 11,  32.9393122,-106.9117764,  1392.0, 2023,  6, 22, 20, 22, 57,        0,        0,   0,   0,   1.4,   0.8,   1.2,  0,  0,  0,  0, 39,  0,  0,  0,  0, 35, 31, 27, 35,  0, 23, 34,  0, 42,  0, 31,  0,  0, 36,  0, 26, 37,  0,  0,  0,  0,  0,  0
6, 10859, 2,KI7APS,     0.00, 3,   boost,   71.92,  85999.00, 1361.88,    0.95,    6.16, 42.9, 8.27, 8.29, 3.99,  75.97,   0.58,  -2.09,  20.93,   5.01,  -2.94,   0.00,   0.00,   0.32,   4.64, 8.27, 0.00, 0.00, 0.00, 0.00, 1, 1, 11,  32.9393122,-106.9117764,  1392.0, 2023,  6, 22, 20, 22, 57,        0,        0,   0,   0,   1.4,   0.8,   1.2,  0,  0,  0,  0, 39,  0,  0,  0,  0, 35, 31, 27, 35,  0, 23, 34,  0, 42,  0, 31,  0,  0, 36,  0, 26, 37,  0,  0,  0,  0,  0,  0
6, 10859, 2,KI7APS,     0.00, 3,   boost,   71.92,  85999.00, 1361.88,    0.95,    6.16, 42.9, 8.27, 8.29, 3.99,  75.97,   0.58,  -2.09,  20.93,   5.01,  -2.94,   0.00,   0.00,   0.32,   4.68, 8.27, 0.00, 0.00, 0.00, 0.00, 1, 1, 11,  32.9393122,-106.9117764,  1392.0, 2023,  6, 22, 20, 22, 57,        0,        0,   0,   0,   1.4,   0.8,   1.2,  0,  0,  0,  0, 39,  0,  0,  0,  0, 35, 31, 27, 35,  0, 23, 34,  0, 42,  0, 31,  0,  0, 36,  0, 26, 37,  0,  0,  0,  0,  0,  0
6, 10859, 2,KI7APS,     0.00, 3,   boost,   71.92,  85999.00, 1361.88,    0.95,    6.16, 42.9, 8.27, 8.29, 3.99,  75.97,   0.58,  -2.09,  20.93,   5.01,  -2.94,   0.00,   0.00,   0.32,   4.72, 8.27, 0.00, 0.00, 0.00, 0.00, 1, 1, 11,  32.9393122,-106.9117764,  1392.0, 2023,  6, 22, 20, 22, 57,        0,        0,   0,   0,   1.4,   0.8,   1.2,  0,  0,  0,  0, 39,  0,  0,  0,  0, 35, 31, 27, 35,  0, 23, 34,  0, 42,  0, 31,  0,  0, 36,  0, 26, 37,  0,  0,  0,  0,  0,  0
6, 10859, 2,KI7APS,     0.00, 3,   boost,   71.92,  85999.00, 1361.88,    0.95,    6.16, 42.9, 8.27, 8.29, 3.99,  75.97,   0.58,  -2.09,  20.93,   5.01,  -2.94,   0.00,   0.00,   0.32,   4.73, 8.27, 0.00, 0.00, 0.00, 0.00, 1, 1, 11,  32.9393122,-106.9117764,  1392.0, 2023,  6, 22, 20, 22, 57,        0,        0,   0,   0,   1.4,   0.8,   1.2,  0,  0,  0,  0, 39,  0,  0,  0,  0, 35, 31, 27, 35,  0, 23, 34,  0, 42,  0, 31,  0,  0, 36,  0, 26, 37,  0,  0,  0,  0,  0,  0
6, 10859, 2,KI7APS,     0.00, 3,   boost,   71.92,  85999.00, 1361.88,    0.95,    6.16, 42.9, 8.27, 8.29, 3.99,  75.97,   0.58,  -2.09,  20.93,   5.01,  -2.94,   0.00,   0.00,   0.32,   4.68, 8.27, 0.00, 0.00, 0.00, 0.00, 1, 1, 11,  32.9393122,-106.9117764,  1392.0, 2023,  6, 22, 20, 22, 57,        0,        0,   0,   0,   1.4,   0.8,   1.2,  0,  0,  0,  0, 39,  0,  0,  0,  0, 35, 31, 27, 35,  0, 23, 34,  0, 42,  0, 31,  0,  0, 36,  0, 26, 37,  0,  0,  0,  0,  0,  0
6, 10859, 2,KI7APS,     0.00, 3,   boost,   71.92,  85999.00, 1361.88,    0.95,    6.16, 42.9, 8.27, 8.29, 3.99,  75.97,   0.58,  -2.09,  20.93,   5.01,  -2.94,   0.00,   0.00,   0.32,   4.62, 8.27, 0.00, 0.00, 0.00, 0.00, 1, 1, 11,  32.9393122,-106.9117764,  1392.0, 2023,  6, 22, 20, 22, 57,        0,        0,   0,   0,   1.4,   0.8,   1.2,  0,  0,  0,  0, 39,  0,  0,  0,  0, 35, 31, 27, 35,  0, 23, 34,  0, 42,  0, 31,  0,  0, 36,  0, 26, 37,  0,  0,  0,  0,  0,  0
6, 10859, 2,KI7APS,     0.00, 3,   boost,   71.92,  85999.00, 1361.88,    0.95,    6.16, 42.9, 8.27, 8.29, 3.99,  75.97,   0.58,  -2.09,  20.93,   5.01,  -2.94,   0.00,   0.00,   0.32,   4.58, 8.27, 0.00, 0.00, 0.00, 0.00, 1, 1, 11,  32.9393122,-106.9117764,  1392.0, 2023,  6, 22, 20, 22, 57,        0,        0,   0,   0,   1.4,   0.8,   1.2,  0,  0,  0,  0, 39,  0,  0,  0,  0, 35, 31, 27, 35,  0, 23, 34,  0, 42,  0, 31,  0,  0, 36,  0, 26, 37,  0,  0,  0,  0,  0,  0
6, 10859, 2,KI7APS,     0.00, 3,   boost,   71.92,  85999.00, 1361.88,    0.95,    6.16, 42.9, 8.27, 8.29, 3.99,  75.97,   0.58,  -2.09,  20.93,   5.01,  -2.94,   0.00,   0.00,   0.32,   4.59, 8.27, 0.00, 0.00, 0.00, 0.00, 1, 1, 11,  32.9393122,-106.9117764,  1392.0, 2023,  6, 22, 20, 22, 57,        0,        0,   0,   0,   1.4,   0.8,   1.2,  0,  0,  0,  0, 39,  0,  0,  0,  0, 35, 31, 27, 35,  0, 23, 34,  0, 42,  0, 31,  0,  0, 36,  0, 26, 37,  0,  0,  0,  0,  0,  0
6, 10859, 2,KI7APS,     0.00, 3,   boost,   71.92,  85999.00, 1361.88,    0.95,    6.16, 42.9, 8.27, 8.29, 3.99,  75.97,   0.58,  -2.09,  20.93,   5.01,  -2.94,   0.00,   0.00,   0.32,   4.65, 8.27, 0.00, 0.00, 0.00, 0.00, 1, 1, 11,  32.9393122,-106.9117764,  1392.0, 2023,  6, 22, 20, 22, 57,        0,        0,   0,   0,   1.4,   0.8,   1.2,  0,  0,  0,  0, 39,  0,  0,  0,  0, 35, 31, 27, 35,  0, 23, 34,  0, 42,  0, 31,  0,  0, 36,  0, 26, 37,  0,  0,  0,  0,  0,  0
6, 10859, 2,KI7APS,     0.01, 3,   boost,   55.82,  85999.00, 1361.88,    0.95,    6.82, 42.9, 8.27, 8.29, 3.99,  79.02,   4.99,  11.55,  34.84,  -0.43,  -2.94,   0.00,   0.00,   0.32,   4.67, 8.27, 0.00, 0.00, 0.00, 0.00, 1, 1, 11,  32.9393122,-106.9117764,  1392.0, 2023,  6, 22, 20, 22, 57,        0,        0,   0,   0,   1.4,   0.8,   1.2,  0,  0,  0,  0, 39,  0,  0,  0,  0, 35, 31, 27, 35,  0, 23, 34,  0, 42,  0, 31,  0,  0, 36,  0, 26, 37,  0,  0,  0,  0,  0,  0
6, 10859, 2,KI7APS,     0.01, 3,   boost,   55.82,  85999.00, 1361.88,    0.95,    6.82, 42.9, 8.27, 8.29, 3.99,  79.02,   4.99,  11.55,  34.84,  -0.43,  -2.94,   0.00,   0.00,   0.32,   4.67, 8.27, 0.00, 0.00, 0.00, 0.00, 1, 1, 11,  32.9393122,-106.9117764,  1392.0, 2023,  6, 22, 20, 22, 57,        0,        0,   0,   0,   1.4,   0.8,   1.2,  0,  0,  0,  0, 39,  0,  0,  0,  0, 35, 31, 27, 35,  0, 23, 34,  0, 42,  0, 31,  0,  0, 36,  0, 26, 37,  0,  0,  0,  0,  0,  0
6, 10859, 2,KI7APS,     0.02, 3,   boost,   68.40,  86010.00, 1360.84,   -0.10,    7.49, 42.9, 8.28, 8.29, 3.95,  79.28,   3.19,   2.35,  20.62,  -2.38,   0.42,   0.01,   0.00,   0.32,   4.65, 8.27, 0.00, 0.00, 0.00, 0.00, 1, 1, 11,  32.9393122,-106.9117764,  1392.0, 2023,  6, 22, 20, 22, 57,        0,        0,   0,   0,   1.4,   0.8,   1.2,  0,  0,  0,  0, 39,  0,  0,  0,  0, 35, 31, 27, 35,  0, 23, 34,  0, 42,  0, 31,  0,  0, 36,  0, 26, 37,  0,  0,  0,  0,  0,  0
6, 10859, 2,KI7APS,     0.02, 3,   boost,   68.40,  86010.00, 1360.84,   -0.10,    7.49, 42.9, 8.28, 8.29, 3.95,  79.28,   3.19,   2.35,  20.62,  -2.38,   0.42,   0.01,   0.00,   0.32,   4.65, 8.27, 0.00, 0.00, 0.00, 0.00, 1, 1, 11,  32.9393122,-106.9117764,  1392.0, 2023,  6, 22, 20, 22, 57,        0,        0,   0,   0,   1.4,   0.8,   1.2,  0,  0,  0,  0, 39,  0,  0,  0,  0, 35, 31, 27, 35,  0, 23, 34,  0, 42,  0, 31,  0,  0, 36,  0, 26, 37,  0,  0,  0,  0,  0,  0
6, 10859, 2,KI7APS,     0.03, 3,   boost,   69.90,  86010.00, 1360.84,   -0.10,    8.16, 42.9, 8.28, 8.29, 3.95,  80.80,  -2.21,  -0.01,   5.48,  -5.49,   2.56,   0.01,   0.01,   0.32,   4.60, 8.27, 0.00, 0.00, 0.00, 0.00, 1, 1, 11,  32.9393122,-106.9117764,  1392.0, 2023,  6, 22, 20, 22, 57,        0,        0,   0,   0,   1.4,   0.8,   1.2,  0,  0,  0,  0, 39,  0,  0,  0,  0, 35, 31, 27, 35,  0, 23, 34,  0, 42,  0, 31,  0,  0, 36,  0, 26, 37,  0,  0,  0,  0,  0,  0
6, 10859, 2,KI7APS,     0.04, 3,   boost,   67.89,  86006.00, 1361.22,    0.29,    8.84, 42.9, 8.28, 8.29, 3.95,  76.78,  -4.71,  -2.00,  -0.68,  -4.88,   0.66,   0.01,   0.01,   0.32,   4.57, 8.27, 0.00, 0.00, 0.00, 0.00, 1, 1, 11,  32.9393122,-106.9117764,  1392.0, 2023,  6, 22, 20, 22, 57,        0,        0,   0,   0,   1.4,   0.8,   1.2,  0,  0,  0,  0, 39,  0,  0,  0,  0, 35, 31, 27, 35,  0, 23, 34,  0, 42,  0, 31,  0,  0, 36,  0, 26, 37,  0,  0,  0,  0,  0,  0
6, 10859, 2,KI7APS,     0.05, 3,   boost,   73.93,  86006.00, 1361.22,    0.29,    9.52, 42.9, 8.28, 8.29, 3.95,  77.84,  -1.83,  -0.37,  -2.51,  -1.83,  -1.96,   0.01,   0.01,   0.32,   4.57, 8.27, 0.00, 0.00, 0.00, 0.00, 1, 1, 11,  32.9393122,-106.9117764,  1392.0, 2023,  6, 22, 20, 22, 57,        0,        0,   0,   0,   1.4,   0.8,   1.2,  0,  0,  0,  0, 39,  0,  0,  0,  0, 35, 31, 27, 35,  0, 23, 34,  0, 42,  0, 31,  0,  0, 36,  0, 26, 37,  0,  0,  0,  0,  0,  0
6, 10859, 2,KI7APS,     0.06, 3,   boost,   64.87,  86013.00, 1360.55,   -0.38,   10.20, 42.9, 8.28, 8.29, 3.95,  79.69,   1.50,   3.30,  -0.99,  -1.40,  -0.25,   0.00,   0.00,   0.32,   4.57, 8.27, 0.00, 0.00, 0.00, 0.00, 1, 1, 11,  32.9393122,-106.9117764,  1392.0, 2023,  6, 22, 20, 22, 57,        0,        0,   0,   0,   1.4,   0.8,   1.2,  0,  0,  0,  0, 39,  0,  0,  0,  0, 35, 31, 27, 35,  0, 23, 34,  0, 42,  0, 31,  0,  0, 36,  0, 26, 37,  0,  0,  0,  0,  0,  0
6, 10859, 2,KI7APS,     0.07, 3,   boost,   64.87,  86013.00, 1360.55,   -0.38,   10.89, 42.9, 8.28, 8.29, 3.95,  75.92,   1.88,   0.11, -13.19,  -2.20,   2.68,   0.00,   0.00,   0.32,   4.53, 8.27, 0.00, 0.00, 0.00, 0.00, 1, 1, 11,  32.9393122,-106.9117764,  1392.0, 2023,  6, 22, 20, 22, 57,        0,        0,   0,   0,   1.4,   0.8,   1.2,  0,  0,  0,  0, 39,  0,  0,  0,  0, 35, 31, 27, 35,  0, 23, 34,  0, 42,  0, 31,  0,  0, 36,  0, 26, 37,  0,  0,  0,  0,  0,  0
6, 10859, 2,KI7APS,     0.08, 3,   boost,   73.42,  86006.00, 1361.22,    0.29,   11.58, 42.9, 8.28, 8.29, 3.95,  83.22,  -4.72,  -5.00, -13.50,  -0.73,   5.49,   0.01,   0.00,   0.32,   4.48, 8.27, 0.00, 0.00, 0.00, 0.00, 1, 1, 11,  32.9393122,-106.9117764,  1392.0, 2023,  6, 22, 20, 22, 57,        0,        0,   0,   0,   1.4,   0.8,   1.2,  0,  0,  0,  0, 39,  0,  0,  0,  0, 35, 31, 27, 35,  0, 23, 34,  0, 42,  0, 31,  0,  0, 36,  0, 26, 37,  0,  0,  0,  0,  0,  0
6, 10859, 2,KI7APS,     0.09, 3,   boost,   70.91,  86010.00, 1360.84,   -0.10,   12.28, 42.9, 8.28, 8.29, 3.95,  80.33,  -1.36,   0.43, -27.23,  -1.65,   2.68,   0.01,   0.00,   0.32,   4.45, 8.27, 0.00, 0.00, 0.00, 0.00, 1, 1, 11,  32.9393122,-106.9117764,  1392.0, 2023,  6, 22, 20, 22, 57,        0,        0,   0,   0,   1.4,   0.8,   1.2,  0,  0,  0,  0, 39,  0,  0,  0,  0, 35, 31, 27, 35,  0, 23, 34,  0, 42,  0, 31,  0,  0, 36,  0, 26, 37,  0,  0,  0,  0,  0,  0
6, 10859, 2,KI7APS,     0.10, 3,   boost,   70.91,  86010.00, 1360.84,   -0.10,   12.98, 42.9, 8.28, 8.29, 3.95,  80.16,  -0.47,   0.18, -36.14,  -1.04,  -0.25,   0.01,  -0.00,   0.32,   4.45, 8.27, 0.00, 0.00, 0.00, 0.00, 1, 1, 11,  32.9393122,-106.9117764,  1392.0, 2023,  6, 22, 20, 22, 57,        0,        0,   0,   0,   1.4,   0.8,   1.2,  0,  0,  0,  0, 39,  0,  0,  0,  0, 35, 31, 27, 35,  0, 23, 34,  0, 42,  0, 31,  0,  0, 36,  0, 26, 37,  0,  0,  0,  0,  0,  0
6, 10859, 2,KI7APS,     0.11, 3,   boost,   70.41,  85996.00, 1362.17,    1.24,   13.67, 42.9, 8.28, 8.29, 3.95,  79.90,   3.46,   4.58, -36.45,  -3.36,  -2.39,   0.01,  -0.00,   0.32,   4.45, 8.27, 0.00, 0.00, 0.00, 0.00, 1, 1, 11,  32.9393122,-106.9117764,  1392.0, 2023,  6, 22, 20, 22, 57,        0,        0,   0,   0,   1.4,   0.8,   1.2,  0,  0,  0,  0, 39,  0,  0,  0,  0, 35, 31, 27, 35,  0, 23, 34,  0, 42,  0, 31,  0,  0, 36,  0, 26, 37,  0,  0,  0,  0,  0,  0
6, 10859, 2,KI7APS,     0.12, 3,   boost,   68.40,  85996.00, 1362.17,    1.24,   14.37, 42.9, 8.28, 8.29, 3.95,  80.44,   3.96,  -0.09, -36.69,  -6.41,   0.73,   0.01,  -0.00,   0.32,   4.41, 8.27, 0.00, 0.00, 0.00, 0.00, 1, 1, 11,  32.9393122,-106.9117764,  1392.0, 2023,  6, 22, 20, 22, 57,        0,        0,   0,   0,   1.4,   0.8,   1.2,  0,  0,  0,  0, 39,  0,  0,  0,  0, 35, 31, 27, 35,  0, 23, 34,  0, 42,  0, 31,  0,  0, 36,  0, 26, 37,  0,  0,  0,  0,  0,  0
6, 10859, 2,KI7APS,     0.13, 3,   boost,   67.89,  85999.00, 1361.88,    0.95,   15.06, 42.9, 8.28, 8.29, 3.95,  79.74,  -2.28,   0.64, -44.99,  -7.57,   2.13,   0.01,  -0.01,   0.32,   4.36, 8.27, 0.00, 0.00, 0.00, 0.00, 1, 1, 11,  32.9393122,-106.9117764,  1392.0, 2023,  6, 22, 20, 22, 57,        0,        0,   0,   0,   1.4,   0.8,   1.2,  0,  0,  0,  0, 39,  0,  0,  0,  0, 35, 31, 27, 35,  0, 23, 34,  0, 42,  0, 31,  0,  0, 36,  0, 26, 37,  0,  0,  0,  0,  0,  0
6, 10859, 2,KI7APS,     0.14, 3,   boost,   70.41,  85999.00, 1361.88,    0.95,   15.76, 42.9, 8.28, 8.29, 3.95,  78.91,  -0.90,  -2.81, -44.57,  -7.38,   3.35,   0.00,  -0.01,   0.32,   4.29, 8.27, 0.00, 0.00, 0.00, 0.00, 1, 1, 11,  32.9393122,-106.9117764,  1392.0, 2023,  6, 22, 20, 22, 57,        0,        0,   0,   0,   1.4,   0.8,   1.2,  0,  0,  0,  0, 39,  0,  0,  0,  0, 35, 31, 27, 35,  0, 23, 34,  0, 42,  0, 31,  0,  0, 36,  0, 26, 37,  0,  0,  0,  0,  0,  0
6, 10859, 2,KI7APS,     0.15, 3,   boost,   69.90,  86005.00, 1361.31,    0.38,   16.46, 42.9, 8.28, 8.29, 3.95,  78.30,  -5.30,  -4.31, -54.88,  -5.67,   1.76,   0.00,  -0.01,   0.33,   4.25, 8.27, 0.00, 0.00, 0.00, 0.00, 1, 1, 11,  32.9393122,-106.9117764,  1392.0, 2023,  6, 22, 20, 22, 57,        0,        0,   0,   0,   1.4,   0.8,   1.2,  0,  0,  0,  0, 39,  0,  0,  0,  0, 35, 31, 27, 35,  0, 23, 34,  0, 42,  0, 31,  0,  0, 36,  0, 26, 37,  0,  0,  0,  0,  0,  0
6, 10859, 2,KI7APS,     0.16, 3,   boost,   71.41,  86005.00, 1361.31,    0.38,   17.16, 42.9, 8.28, 8.29, 3.95,  78.19,   3.19,   4.89, -47.07,  -6.71,   3.23,   0.01,  -0.01,   0.33,   4.19, 8.27, 0.00, 0.00, 0.00, 0.00, 1, 1, 11,  32.9393122,-106.9117764,  1392.0, 2023,  6, 22, 20, 22, 57,        0,        0,   0,   0,   1.4,   0.8,   1.2,  0,  0,  0,  0, 39,  0,  0,  0,  0, 35, 31, 27, 35,  0, 23, 34,  0, 42,  0, 31,  0,  0, 36,  0, 26, 37,  0,  0,  0,  0,  0,  0
6, 10859, 2,KI7APS,     0.17, 3,   boost,   70.91,  86002.00, 1361.60,    0.67,   17.87, 42.9, 8.28, 8.29, 3.95,  79.51,  -1.85,  -6.90, -49.08,  -4.82,   4.69,   0.01,  -0.01,   0.33,   4.13, 8.27, 0.00, 0.00, 0.00, 0.00, 1, 1, 11,  32.9393122,-106.9117764,  1392.0, 2023,  6, 22, 20, 22, 57,        0,        0,   0,   0,   1.4,   0.8,   1.2,  0,  0,  0,  0, 39,  0,  0,  0,  0, 35, 31, 27, 35,  0, 23, 34,  0, 42,  0, 31,  0,  0, 36,  0, 26, 37,  0,  0,  0,  0,  0,  0
6, 10859, 2,KI7APS,     0.18, 3,   boost,   73.93,  86002.00, 1361.60,    0.67,   18.58, 42.9, 8.28, 8.29, 3.95,  79.25,  -0.60,  -0.62, -30.95,  -2.99,   3.78,   0.01,  -0.01,   0.33,   4.08, 8.27, 0.00, 0.00, 0.00, 0.00, 1, 1, 11,  32.9393122,-106.9117764,  1392.0, 2023,  6, 22, 20, 22, 57,        0,        0,   0,   0,   1.4,   0.8,   1.2,  0,  0,  0,  0, 39,  0,  0,  0,  0, 35, 31, 27, 35,  0, 23, 34,  0, 42,  0, 31,  0,  0, 36,  0, 26, 37,  0,  0,  0,  0,  0,  0
6, 10859, 2,KI7APS,     0.19, 3,   boost,   68.40,  85974.00, 1364.26,    3.33,   19.30, 42.9, 8.28, 8.29, 3.95,  80.58,  -1.87,  -3.55, -19.85,  -1.40,   0.60,   0.01,  -0.02,   0.33,   4.07, 8.27, 0.00, 0.00, 0.00, 0.00, 1, 1, 11,  32.9393122,-106.9117764,  1392.0, 2023,  6, 22, 20, 22, 57,        0,        0,   0,   0,   1.4,   0.8,   1.2,  0,  0,  0,  0, 39,  0,  0,  0,  0, 35, 31, 27, 35,  0, 23, 34,  0, 42,  0, 31,  0,  0, 36,  0, 26, 37,  0,  0,  0,  0,  0,  0
6, 10859, 2,KI7APS,     0.20, 3,   boost,   73.42,  85974.00, 1364.26,    3.33,   20.04, 42.9, 8.28, 8.29, 3.95,  83.08,   1.16,   0.34, -17.59,   0.43,  -0.92,   0.01,  -0.01,   0.33,   4.08, 8.27, 0.00, 0.00, 0.00, 0.00, 1, 1, 11,  32.9393122,-106.9117764,  1392.0, 2023,  6, 22, 20, 22, 57,        0,        0,   0,   0,   1.4,   0.8,   1.2,  0,  0,  0,  0, 39,  0,  0,  0,  0, 35, 31, 27, 35,  0, 23, 34,  0, 42,  0, 31,  0,  0, 36,  0, 26, 37,  0,  0,  0,  0,  0,  0
6, 10859, 2,KI7APS,     0.21, 3,   boost,   77.45,  85976.00, 1364.07,    3.14,   20.78, 42.9, 8.28, 8.29, 3.95,  85.65,   0.59,   1.26,   1.27,  -2.87,  -2.33,   0.00,  -0.01,   0.33,   4.09, 8.27, 0.00, 0.00, 0.00, 0.00, 1, 1, 11,  32.9393122,-106.9117764,  1392.0, 2023,  6, 22, 20, 22, 57,        0,        0,   0,   0,   1.4,   0.8,   1.2,  0,  0,  0,  0, 39,  0,  0,  0,  0, 35, 31, 27, 35,  0, 23, 34,  0, 42,  0, 31,  0,  0, 36,  0, 26, 37,  0,  0,  0,  0,  0,  0
6, 10859, 2,KI7APS,     0.22, 3,   boost,   78.96,  85976.00, 1364.07,    3.14,   21.53, 42.9, 8.28, 8.29, 3.95,  82.97,   2.90,  -4.29,  -3.06,  -0.49,  -1.17,   0.01,  -0.01,   0.33,   4.10, 8.27, 0.00, 0.00, 0.00, 0.00, 1, 1, 11,  32.9393122,-106.9117764,  1392.0, 2023,  6, 22, 20, 22, 57,        0,        0,   0,   0,   1.4,   0.8,   1.2,  0,  0,  0,  0, 39,  0,  0,  0,  0, 35, 31, 27, 35,  0, 23, 34,  0, 42,  0, 31,  0,  0, 36,  0, 26, 37,  0,  0,  0,  0,  0,  0
6, 10859, 2,KI7APS,     0.23, 3,   boost,   74.93,  85979.00, 1363.78,    2.85,   22.28, 42.9, 8.28, 8.29, 3.95,  81.97,  -1.98,  -2.36,  -7.21,   1.10,  -0.19,   0.01,  -0.01,   0.33,   4.10, 8.27, 0.00, 0.00, 0.00, 0.00, 1, 1, 11,  32.9393122,-106.9117764,  1392.0, 2023,  6, 22, 20, 22, 57,        0,        0,   0,   0,   1.4,   0.8,   1.2,  0,  0,  0,  0, 39,  0,  0,  0,  0, 35, 31, 27, 35,  0, 23, 34,  0, 42,  0, 31,  0,  0, 36,  0, 26, 37,  0,  0,  0,  0,  0,  0
6, 10859, 2,KI7APS,     0.24, 3,   boost,   75.44,  85979.00, 1363.78,    2.85,   23.03, 42.9, 8.28, 8.29, 3.95,  82.56,   2.46,  -0.22,  -6.24,   0.31,   0.48,   0.00,  -0.02,   0.33,   4.10, 8.27, 0.00, 0.00, 0.00, 0.00, 1, 1, 11,  32.9393122,-106.9117764,  1392.0, 2023,  6, 22, 20, 22, 57,        0,        0,   0,   0,   1.4,   0.8,   1.2,  0,  0,  0,  0, 39,  0,  0,  0,  0, 35, 31, 27, 35,  0, 23, 34,  0, 42,  0, 31,  0,  0, 36,  0, 26, 37,  0,  0,  0,  0,  0,  0
6, 10859, 2,KI7APS,     0.25, 3,   boost,   73.42,  85966.00, 1365.02,    4.09,   23.77, 42.9, 8.28, 8.29, 3.95,  82.99,  -2.91,  -0.52, -12.28,  -1.59,  -1.78,   0.00,  -0.02,   0.33,   4.11, 8.27, 0.00, 0.00, 0.00, 0.00, 1, 1, 11,  32.9393122,-106.9117764,  1392.0, 2023,  6, 22, 20, 22, 57,        0,        0,   0,   0,   1.4,   0.8,   1.2,  0,  0,  0,  0, 39,  0,  0,  0,  0, 35, 31, 27, 35,  0, 23, 34,  0, 42,  0, 31,  0,  0, 36,  0, 26, 37,  0,  0,  0,  0,  0,  0
6, 10859, 2,KI7APS,     0.26, 3,   boost,   70.41,  85966.00, 1365.02,    4.09,   24.50, 42.9, 8.28, 8.29, 3.95,  82.33,   2.52,   1.90, -31.26,  -4.15,  -2.75,   0.00,  -0.02,   0.33,   4.12, 8.27, 0.00, 0.00, 0.00, 0.00, 1, 1, 11,  32.9393122,-106.9117764,  1392.0, 2023,  6, 22, 20, 22, 57,        0,        0,   0,   0,   1.4,   0.8,   1.2,  0,  0,  0,  0, 39,  0,  0,  0,  0, 35, 31, 27, 35,  0, 23, 34,  0, 42,  0, 31,  0,  0, 36,  0, 26, 37,  0,  0,  0,  0,  0,  0
6, 10859, 2,KI7APS,     0.27, 3,   boost,   72.42,  85943.00, 1367.21,    6.28,   25.22, 42.9, 8.28, 8.29, 3.95,  82.35,   1.73,  -2.72, -29.92,  -4.88,  -1.65,   0.00,  -0.02,   0.33,   4.12, 8.27, 0.00, 0.00, 0.00, 0.00, 1, 1, 11,  32.9393122,-106.9117764,  1392.0, 2023,  6, 22, 20, 22, 57,        0,        0,   0,   0,   1.4,   0.8,   1.2,  0,  0,  0,  0, 39,  0,  0,  0,  0, 35, 31, 27, 35,  0, 23, 34,  0, 42,  0, 31,  0,  0, 36,  0, 26, 37,  0,  0,  0,  0,  0,  0
6, 10859, 2,KI7APS,     0.28, 3,   boost,   71.92,  85943.00, 1367.21,    6.28,   25.95, 42.9, 8.28, 8.29, 3.95,  80.76,   3.16,  -0.96, -34.43,  -4.45,   0.54,   0.00,  -0.02,   0.33,   4.10, 8.27, 0.00, 0.00, 0.00, 0.00, 1, 1, 11,  32.9393122,-106.9117764,  1392.0, 2023,  6, 22, 20, 22, 57,        0,        0,   0,   0,   1.4,   0.8,   1.2,  0,  0,  0,  0, 39,  0,  0,  0,  0, 35, 31, 27, 35,  0, 23, 34,  0, 42,  0, 31,  0,  0, 36,  0, 26, 37,  0,  0,  0,  0,  0,  0
6, 10859, 2,KI7APS,     0.29, 3,   boost,   72.92,  85939.00, 1367.59,    6.66,   26.67, 42.9, 8.28, 8.29, 3.95,  80.99,   0.78,  -3.36, -33.58,  -3.29,   1.58,   0.00,  -0.02,   0.33,   4.07, 8.27, 0.00, 0.00, 0.00, 0.00, 1, 1, 11,  32.9393122,-106.9117764,  1392.0, 2023,  6, 22, 20, 22, 57,        0,        0,   0,   0,   1.4,   0.8,   1.2,  0,  0,  0,  0, 39,  0,  0,  0,  0, 35, 31, 27, 35,  0, 23, 34,  0, 42,  0, 31,  0,  0, 36,  0, 26, 37,  0,  0,  0,  0,  0,  0
6, 10859, 2,KI7APS,     0.30, 3,   boost,   74.43,  85939.00, 1367.59,    6.66,   27.40, 42.9, 8.28, 8.29, 3.95,  81.96,  -1.72,  -1.50, -32.54,  -2.87,   0.97,   0.00,  -0.02,   0.33,   4.05, 8.27, 0.00, 0.00, 0.00, 0.00, 1, 1, 11,  32.9393122,-106.9117764,  1392.0, 2023,  6, 22, 20, 22, 57,        0,        0,   0,   0,   1.4,   0.8,   1.2,  0,  0,  0,  0, 39,  0,  0,  0,  0, 35, 31, 27, 35,  0, 23, 34,  0, 42,  0, 31,  0,  0, 36,  0, 26, 37,  0,  0,  0,  0,  0,  0
6, 10859, 2,KI7APS,     0.30, 3,   boost,   74.43,  85939.00, 1367.59,    6.66,   27.40, 42.9, 8.28, 8.29, 3.95,  81.96,  -1.72,  -1.50, -32.54,  -2.87,   0.97,   0.00,  -0.02,   0.33,   4.05, 8.27, 0.00, 0.00, 0.00, 0.00, 1, 1, 11,  32.9393122,-106.9117764,  1392.0, 2023,  6, 22, 20, 22, 57,        0,        0,   0,   0,   1.4,   0.8,   1.2,  0,  0,  0,  0, 39,  0,  0,  0,  0, 35, 31, 27, 35,  0, 23, 34,  0, 42,  0, 31,  0,  0, 36,  0, 26, 37,  0,  0,  0,  0,  0,  0
6, 10859, 2,KI7APS,     0.30, 3,   boost,   74.43,  85939.00, 1367.59,    6.66,   27.40, 42.9, 8.28, 8.29, 3.95,  81.96,  -1.72,  -1.50, -32.54,  -2.87,   0.97,   0.00,  -0.02,   0.33,   4.05, 8.27, 0.00, 0.00, 0.00, 0.00, 1, 1, 11,  32.9393122,-106.9117764,  1392.0, 2023,  6, 22, 20, 22, 57,        0,        0,   0,   0,   1.4,   0.8,   1.2,  0,  0,  0,  0, 39,  0,  0,  0,  0, 35, 31, 27, 35,  0, 23, 34,  0, 42,  0, 31,  0,  0, 36,  0, 26, 37,  0,  0,  0,  0,  0,  0
6, 10859, 2,KI7APS,     0.31, 3,   boost,   73.93,  85924.00, 1369.01,    8.08,   28.13, 42.9, 8.28, 8.29, 3.95,  81.86,   0.85,  -0.75, -34.37,  -3.72,  -0.19,   0.00,  -0.02,   0.33,   4.04, 8.27, 0.00, 0.00, 0.00, 0.00, 1, 1, 11,  32.9393168,-106.9117655,  1403.0, 2023,  6, 22, 20, 22, 58,        1,       11,  63,  84,   1.4,   0.8,   1.2,  0,  0,  0,  0, 39,  0,  0,  0,  0, 32, 32, 26, 34,  0, 31, 37,  0, 40,  0, 34,  0,  0, 33,  0, 26, 37,  0,  0,  0,  0,  0,  0
6, 10859, 2,KI7APS,     0.32, 3,   boost,   73.42,  85924.00, 1369.01,    8.08,   28.86, 42.9, 8.28, 8.29, 3.95,  82.18,   0.53,  -1.83, -34.37,  -3.66,  -0.19,   0.00,  -0.03,   0.33,   4.03, 8.27, 0.00, 0.00, 0.00, 0.00, 1, 1, 11,  32.9393168,-106.9117655,  1403.0, 2023,  6, 22, 20, 22, 58,        1,       11,  63,  84,   1.4,   0.8,   1.2,  0,  0,  0,  0, 39,  0,  0,  0,  0, 32, 32, 26, 34,  0, 31, 37,  0, 40,  0, 34,  0,  0, 33,  0, 26, 37,  0,  0,  0,  0,  0,  0
6, 10859, 2,KI7APS,     0.33, 3,   boost,   72.92,  85906.00, 1370.73,    9.80,   29.59, 42.9, 8.28, 8.29, 3.95,  81.93,   1.84,  -2.15, -34.68,  -3.60,   0.73,   0.00,  -0.03,   0.33,   4.02, 8.27, 0.00, 0.00, 0.00, 0.00, 1, 1, 11,  32.9393168,-106.9117655,  1403.0, 2023,  6, 22, 20, 22, 58,        1,       11,  63,  84,   1.4,   0.8,   1.2,  0,  0,  0,  0, 39,  0,  0,  0,  0, 32, 32, 26, 34,  0, 31, 37,  0, 40,  0, 34,  0,  0, 33,  0, 26, 37,  0,  0,  0,  0,  0,  0
6, 10859, 2,KI7APS,     0.34, 3,   boost,   71.41,  85906.00, 1370.73,    9.80,   30.31, 42.9, 8.26, 8.28, 3.95,  81.45,   0.67,  -2.96, -35.04,  -1.77,   1.89,   0.00,  -0.03,   0.33,   3.99, 8.28, 0.00, 0.00, 0.00, 0.00, 1, 1, 11,  32.9393168,-106.9117655,  1403.0, 2023,  6, 22, 20, 22, 58,        1,       11,  63,  84,   1.4,   0.8,   1.2,  0,  0,  0,  0, 39,  0,  0,  0,  0, 32, 32, 26, 34,  0, 31, 37,  0, 40,  0, 34,  0,  0, 33,  0, 26, 37,  0,  0,  0,  0,  0,  0
6, 10859, 2,KI7APS,     0.34, 3,   boost,   71.41,  85906.00, 1370.73,    9.80,   30.31, 42.9, 8.26, 8.28, 3.95,  81.45,   0.67,  -2.96, -35.04,  -1.77,   1.89,   0.00,  -0.03,   0.33,   3.99, 8.28, 0.00, 0.00, 0.00, 0.00, 1, 1, 11,  32.9393168,-106.9117655,  1403.0, 2023,  6, 22, 20, 22, 58,        1,       11,  63,  84,   1.4,   0.8,   1.2,  0,  0,  0,  0, 39,  0,  0,  0,  0, 32, 32, 26, 34,  0, 31, 37,  0, 40,  0, 34,  0,  0, 33,  0, 26, 37,  0,  0,  0,  0,  0,  0
6, 10859, 2,KI7APS,     0.35, 3,   boost,   71.41,  85908.00, 1370.54,    9.61,   31.03, 42.9, 8.26, 8.28, 3.95,  81.41,  -0.57,  -1.29, -36.20,  -0.06,   1.15,   0.00,  -0.03,   0.33,   3.98, 8.28, 0.00, 0.00, 0.00, 0.00, 1, 1, 11,  32.9393168,-106.9117655,  1403.0, 2023,  6, 22, 20, 22, 58,        1,       11,  63,  84,   1.4,   0.8,   1.2,  0,  0,  0,  0, 39,  0,  0,  0,  0, 32, 32, 26, 34,  0, 31, 37,  0, 40,  0, 34,  0,  0, 33,  0, 26, 37,  0,  0,  0,  0,  0,  0
6, 10859, 2,KI7APS,     0.36, 3,   boost,   70.91,  85908.00, 1370.54,    9.61,   31.75, 42.9, 8.26, 8.28, 3.95,  81.48,  -0.27,  -1.55, -37.97,   0.43,   0.30,   0.00,  -0.03,   0.33,   3.98, 8.28, 0.00, 0.00, 0.00, 0.00, 1, 1, 11,  32.9393168,-106.9117655,  1403.0, 2023,  6, 22, 20, 22, 58,        1,       11,  63,  84,   1.4,   0.8,   1.2,  0,  0,  0,  0, 39,  0,  0,  0,  0, 32, 32, 26, 34,  0, 31, 37,  0, 40,  0, 34,  0,  0, 33,  0, 26, 37,  0,  0,  0,  0,  0,  0
6, 10859, 2,KI7APS,     0.37, 3,   boost,   72.92,  85905.00, 1370.82,    9.89,   32.46, 42.9, 8.26, 8.28, 3.95,  81.23,   0.65,  -1.70, -39.38,   1.47,  -0.62,   0.00,  -0.03,   0.34,   3.99, 8.28, 0.00, 0.00, 0.00, 0.00, 1, 1, 11,  32.9393168,-106.9117655,  1403.0, 2023,  6, 22, 20, 22, 58,        1,       11,  63,  84,   1.4,   0.8,   1.2,  0,  0,  0,  0, 39,  0,  0,  0,  0, 32, 32, 26, 34,  0, 31, 37,  0, 40,  0, 34,  0,  0, 33,  0, 26, 37,  0,  0,  0,  0,  0,  0
6, 10859, 2,KI7APS,     0.38, 3,   boost,   72.42,  85905.00, 1370.82,    9.89,   33.17, 42.9, 8.26, 8.28, 3.95,  80.90,   1.58,  -2.41, -39.93,   2.69,   0.18,   0.00,  -0.03,   0.33,   4.00, 8.28, 0.00, 0.00, 0.00, 0.00, 1, 1, 11,  32.9393168,-106.9117655,  1403.0, 2023,  6, 22, 20, 22, 58,        1,       11,  63,  84,   1.4,   0.8,   1.2,  0,  0,  0,  0, 39,  0,  0,  0,  0, 32, 32, 26, 34,  0, 31, 37,  0, 40,  0, 34,  0,  0, 33,  0, 26, 37,  0,  0,  0,  0,  0,  0
6, 10859, 2,KI7APS,     0.39, 3,   boost,   69.90,  85898.00, 1371.49,   10.56,   33.88, 42.9, 8.26, 8.28, 3.95,  80.56,   0.77,  -2.28, -40.35,   4.27,   0.97,   0.00,  -0.04,   0.33,   4.00, 8.28, 0.00, 0.00, 0.00, 0.00, 1, 1, 11,  32.9393168,-106.9117655,  1403.0, 2023,  6, 22, 20, 22, 58,        1,       11,  63,  84,   1.4,   0.8,   1.2,  0,  0,  0,  0, 39,  0,  0,  0,  0, 32, 32, 26, 34,  0, 31, 37,  0, 40,  0, 34,  0,  0, 33,  0, 26, 37,  0,  0,  0,  0,  0,  0
6, 10859, 2,KI7APS,     0.40, 3,   boost,   69.90,  85898.00, 1371.49,   10.56,   34.60, 42.9, 8.26, 8.28, 3.95,  80.52,  -0.44,  -2.11, -41.70,   6.17,   0.79,   0.00,  -0.04,   0.33,   4.01, 8.28, 0.00, 0.00, 0.00, 0.00, 1, 1, 11,  32.9393168,-106.9117655,  1403.0, 2023,  6, 22, 20, 22, 58,        1,       11,  63,  84,   1.4,   0.8,   1.2,  0,  0,  0,  0, 39,  0,  0,  0,  0, 32, 32, 26, 34,  0, 31, 37,  0, 40,  0, 34,  0,  0, 33,  0, 26, 37,  0,  0,  0,  0,  0,  0
6, 10859, 2,KI7APS,     0.41, 3,   boost,   72.42,  85904.00, 1370.92,    9.99,   35.31, 42.9, 8.26, 8.28, 3.95,  79.80,  -0.52,  -1.59, -43.22,   6.90,  -0.80,   0.00,  -0.04,   0.33,   4.03, 8.28, 0.00, 0.00, 0.00, 0.00, 1, 1, 11,  32.9393168,-106.9117655,  1403.0, 2023,  6, 22, 20, 22, 58,        1,       11,  63,  84,   1.4,   0.8,   1.2,  0,  0,  0,  0, 39,  0,  0,  0,  0, 32, 32, 26, 34,  0, 31, 37,  0, 40,  0, 34,  0,  0, 33,  0, 26, 37,  0,  0,  0,  0,  0,  0
6, 10859, 2,KI7APS,     0.42, 3,   boost,   71.92,  85904.00, 1370.92,    9.99,   36.02, 42.9, 8.26, 8.28, 3.95,  80.90,   0.36,  -1.16, -44.14,   7.02,  -1.47,   0.01,  -0.04,   0.33,   4.07, 8.28, 0.00, 0.00, 0.00, 0.00, 1, 1, 11,  32.9393168,-106.9117655,  1403.0, 2023,  6, 22, 20, 22, 58,        1,       11,  63,  84,   1.4,   0.8,   1.2,  0,  0,  0,  0, 39,  0,  0,  0,  0, 32, 32, 26, 34,  0, 31, 37,  0, 40,  0, 34,  0,  0, 33,  0, 26, 37,  0,  0,  0,  0,  0,  0
6, 10859, 2,KI7APS,     0.43, 3,   boost,   71.92,  85884.00, 1372.82,   11.89,   36.73, 42.9, 8.26, 8.28, 3.95,  81.31,   1.99,  -1.10, -42.12,   7.39,  -0.43,   0.01,  -0.04,   0.33,   4.09, 8.28, 0.00, 0.00, 0.00, 0.00, 1, 1, 11,  32.9393168,-106.9117655,  1403.0, 2023,  6, 22, 20, 22, 58,        1,       11,  63,  84,   1.4,   0.8,   1.2,  0,  0,  0,  0, 39,  0,  0,  0,  0, 32, 32, 26, 34,  0, 31, 37,  0, 40,  0, 34,  0,  0, 33,  0, 26, 37,  0,  0,  0,  0,  0,  0
6, 10859, 2,KI7APS,     0.44, 3,   boost,   70.91,  85884.00, 1372.82,   11.89,   37.45, 42.9, 8.26, 8.28, 3.95,  79.70,   1.09,  -2.48, -41.82,   7.88,   1.03,   0.01,  -0.05,   0.33,   4.11, 8.28, 0.00, 0.00, 0.00, 0.00, 1, 1, 11,  32.9393168,-106.9117655,  1403.0, 2023,  6, 22, 20, 22, 58,        1,       11,  63,  84,   1.4,   0.8,   1.2,  0,  0,  0,  0, 39,  0,  0,  0,  0, 32, 32, 26, 34,  0, 31, 37,  0, 40,  0, 34,  0,  0, 33,  0, 26, 37,  0,  0,  0,  0,  0,  0
6, 10859, 2,KI7APS,     0.45, 3,   boost,   71.41,  85869.00, 1374.25,   13.32,   38.16, 42.9, 8.26, 8.28, 3.95,  80.03,   0.22,  -2.07, -42.61,   9.71,   1.40,   0.01,  -0.05,   0.33,   4.12, 8.28, 0.00, 0.00, 0.00, 0.00, 1, 1, 11,  32.9393168,-106.9117655,  1403.0, 2023,  6, 22, 20, 22, 58,        1,       11,  63,  84,   1.4,   0.8,   1.2,  0,  0,  0,  0, 39,  0,  0,  0,  0, 32, 32, 26, 34,  0, 31, 37,  0, 40,  0, 34,  0,  0, 33,  0, 26, 37,  0,  0,  0,  0,  0,  0
6, 10859, 2,KI7APS,     0.46, 3,   boost,   72.42,  85869.00, 1374.25,   13.32,   38.88, 42.9, 8.26, 8.28, 3.95,  79.97,  -0.76,  -1.51, -42.92,  10.93,   0.24,   0.01,  -0.05,   0.33,   4.16, 8.28, 0.00, 0.00, 0.00, 0.00, 1, 1, 11,  32.9393168,-106.9117655,  1403.0, 2023,  6, 22, 20, 22, 58,        1,       11,  63,  84,   1.4,   0.8,   1.2,  0,  0,  0,  0, 39,  0,  0,  0,  0, 32, 32, 26, 34,  0, 31, 37,  0, 40,  0, 34,  0,  0, 33,  0, 26, 37,  0,  0,  0,  0,  0,  0
6, 10859, 2,KI7APS,     0.47, 3,   boost,   72.42,  85873.00, 1373.87,   12.94,   39.60, 42.9, 8.26, 8.28, 3.95,  79.55,   0.42,  -1.62, -44.20,  12.09,  -0.56,   0.01,  -0.05,   0.33,   4.20, 8.28, 0.00, 0.00, 0.00, 0.00, 1, 1, 11,  32.9393168,-106.9117655,  1403.0, 2023,  6, 22, 20, 22, 58,        1,       11,  63,  84,   1.4,   0.8,   1.2,  0,  0,  0,  0, 39,  0,  0,  0,  0, 32, 32, 26, 34,  0, 31, 37,  0, 40,  0, 34,  0,  0, 33,  0, 26, 37,  0,  0,  0,  0,  0,  0
6, 10859, 2,KI7APS,     0.48, 3,   boost,   71.92,  85873.00, 1373.87,   12.94,   40.32, 42.9, 8.26, 8.28, 3.95,  80.21,   1.62,  -1.36, -44.69,  13.19,   0.12,   0.01,  -0.05,   0.33,   4.25, 8.28, 0.00, 0.00, 0.00, 0.00, 1, 1, 11,  32.9393168,-106.9117655,  1403.0, 2023,  6, 22, 20, 22, 58,        1,       11,  63,  84,   1.4,   0.8,   1.2,  0,  0,  0,  0, 39,  0,  0,  0,  0, 32, 32, 26, 34,  0, 31, 37,  0, 40,  0, 34,  0,  0, 33,  0, 26, 37,  0,  0,  0,  0,  0,  0
6, 10859, 2,KI7APS,     0.49, 3,   boost,   72.42,  85863.00, 1374.82,   13.89,   41.04, 42.9, 8.26, 8.28, 3.95,  80.37,   0.96,  -1.20, -43.83,  14.10,   0.91,   0.01,  -0.05,   0.33,   4.30, 8.28, 0.00, 0.00, 0.00, 0.00, 1, 1, 11,  32.9393168,-106.9117655,  1403.0, 2023,  6, 22, 20, 22, 58,        1,       11,  63,  84,   1.4,   0.8,   1.2,  0,  0,  0,  0, 39,  0,  0,  0,  0, 32, 32, 26, 34,  0, 31, 37,  0, 40,  0, 34,  0,  0, 33,  0, 26, 37,  0,  0,  0,  0,  0,  0
6, 10859, 2,KI7APS,     0.50, 3,   boost,   73.42,  85863.00, 1374.82,   13.89,   41.77, 42.9, 8.26, 8.28, 3.95,  80.68,   0.43,  -1.96, -43.59,  15.69,   1.09,   0.01,  -0.06,   0.33,   4.35, 8.28, 0.00, 0.00, 0.00, 0.00, 1, 1, 11,  32.9393168,-106.9117655,  1403.0, 2023,  6, 22, 20, 22, 58,        1,       11,  63,  84,   1.4,   0.8,   1.2,  0,  0,  0,  0, 39,  0,  0,  0,  0, 32, 32, 26, 34,  0, 31, 37,  0, 40,  0, 34,  0,  0, 33,  0, 26, 37,  0,  0,  0,  0,  0,  0
6, 10859, 2,KI7APS,     0.51, 3,   boost,   75.44,  85857.00, 1375.39,   14.46,   42.51, 42.9, 8.26, 8.28, 3.95,  80.35,  -0.06,  -1.85, -44.57,  16.91,   0.48,   0.01,  -0.06,   0.33,   4.42, 8.28, 0.00, 0.00, 0.00, 0.00, 1, 1, 11,  32.9393168,-106.9117655,  1403.0, 2023,  6, 22, 20, 22, 58,        1,       11,  63,  84,   1.4,   0.8,   1.2,  0,  0,  0,  0, 39,  0,  0,  0,  0, 32, 32, 26, 34,  0, 31, 37,  0, 40,  0, 34,  0,  0, 33,  0, 26, 37,  0,  0,  0,  0,  0,  0
6, 10859, 2,KI7APS,     0.52, 3,   boost,   72.92,  85857.00, 1375.39,   14.46,   43.24, 42.9, 8.26, 8.28, 3.95,  80.39,   0.18,  -0.98, -45.11,  18.19,  -0.31,   0.01,  -0.06,   0.33,   4.50, 8.28, 0.00, 0.00, 0.00, 0.00, 1, 1, 11,  32.9393168,-106.9117655,  1403.0, 2023,  6, 22, 20, 22, 58,        1,       11,  63,  84,   1.4,   0.8,   1.2,  0,  0,  0,  0, 39,  0,  0,  0,  0, 32, 32, 26, 34,  0, 31, 37,  0, 40,  0, 34,  0,  0, 33,  0, 26, 37,  0,  0,  0,  0,  0,  0
6, 10859, 2,KI7APS,     0.53, 3,   boost,   74.43,  85856.00, 1375.48,   14.55,   43.97, 42.9, 8.26, 8.28, 3.95,  80.84,   1.37,  -1.14, -45.05,  18.62,   0.36,   0.01,  -0.06,   0.32,   4.59, 8.28, 0.00, 0.00, 0.00, 0.00, 1, 1, 11,  32.9393168,-106.9117655,  1403.0, 2023,  6, 22, 20, 22, 58,        1,       11,  63,  84,   1.4,   0.8,   1.2,  0,  0,  0,  0, 39,  0,  0,  0,  0, 32, 32, 26, 34,  0, 31, 37,  0, 40,  0, 34,  0,  0, 33,  0, 26, 37,  0,  0,  0,  0,  0,  0
6, 10859, 2,KI7APS,     0.54, 3,   boost,   74.43,  85856.00, 1375.48,   14.55,   44.69, 42.9, 8.26, 8.28, 3.95,  81.24,   1.30,  -1.65, -45.30,  19.23,   0.60,   0.01,  -0.06,   0.32,   4.68, 8.28, 0.00, 0.00, 0.00, 0.00, 1, 1, 11,  32.9393168,-106.9117655,  1403.0, 2023,  6, 22, 20, 22, 58,        1,       11,  63,  84,   1.4,   0.8,   1.2,  0,  0,  0,  0, 39,  0,  0,  0,  0, 32, 32, 26, 34,  0, 31, 37,  0, 40,  0, 34,  0,  0, 33,  0, 26, 37,  0,  0,  0,  0,  0,  0
6, 10859, 2,KI7APS,     0.55, 3,   boost,   66.38,  85855.00, 1375.58,   14.65,   45.41, 42.9, 8.26, 8.28, 3.95,  81.23,   0.35,  -1.59, -45.18,  20.57,   1.03,   0.01,  -0.06,   0.32,   4.78, 8.28, 0.00, 0.00, 0.00, 0.00, 1, 1, 11,  32.9393168,-106.9117655,  1403.0, 2023,  6, 22, 20, 22, 58,        1,       11,  63,  84,   1.4,   0.8,   1.2,  0,  0,  0,  0, 39,  0,  0,  0,  0, 32, 32, 26, 34,  0, 31, 37,  0, 40,  0, 34,  0,  0, 33,  0, 26, 37,  0,  0,  0,  0,  0,  0
